City_ID,City,Lat,Lng,Humidity,Cloudiness,Wind Speed,Country,Date,Max Temp Celsius
0,ilulissat,69.2167,-51.1,93,75,2.06,GL,1687599345,2.160000000000025
1,alexandria,31.2156,29.9553,50,0,4.2,EG,1687599105,28.730000000000018
2,kavieng,-2.5744,150.7967,77,41,1.78,PG,1687599346,27.350000000000023
3,new norfolk,-42.7826,147.0587,80,100,0.88,AU,1687599348,8.430000000000007
4,moerai,-22.4333,-151.3333,85,100,5.5,PF,1687599349,24.860000000000014
5,vaini,-21.2,-175.2,83,40,1.54,TO,1687599349,22.24000000000001
6,kodiak,57.79,-152.4072,87,100,2.57,US,1687599350,10.879999999999995
7,rikitea,-23.1203,-134.9692,65,100,8.28,PF,1687599351,21.579999999999984
8,dikson,73.5069,80.5464,88,11,4.53,RU,1687599351,0.8600000000000136
9,pevek,69.7008,170.3133,98,63,2.92,RU,1687599353,0.5500000000000114
10,tasiilaq,65.6145,-37.6368,99,100,3.38,GL,1687599353,7.240000000000009
11,punta arenas,-53.15,-70.9167,93,100,7.2,CL,1687599173,2.2099999999999795
12,hoquiam,46.9809,-123.8893,87,84,2.16,US,1687599354,13.45999999999998
13,cape town,-33.9258,18.4232,82,40,1.79,ZA,1687599098,16.879999999999995
14,takoradi,4.8845,-1.7554,88,100,5.12,GH,1687599356,24.879999999999995
15,sola,-13.8833,167.55,100,75,2.06,VU,1687599356,23.519999999999982
16,iqaluit,63.7506,-68.5145,86,75,1.03,CA,1687599358,3.0
17,camacha,33.0833,-16.3333,64,40,7.72,PT,1687599358,20.829999999999984
18,busselton,-33.65,115.3333,73,92,4.76,AU,1687599359,12.569999999999993
19,nanortalik,60.1432,-45.2371,87,53,4.13,GL,1687599360,3.420000000000016
20,atuona,-9.8,-139.0333,62,46,9.39,PF,1687599361,26.860000000000014
21,kahului,20.8947,-156.47,84,0,6.17,US,1687599362,25.060000000000002
22,jamestown,42.097,-79.2353,79,100,0.45,US,1687599361,18.49000000000001
23,hobart,-42.8794,147.3294,90,0,1.03,AU,1687599364,8.629999999999995
24,kaitangata,-46.2817,169.8464,95,51,2.29,NZ,1687599364,9.170000000000016
25,yellowknife,62.456,-114.3525,67,100,8.75,CA,1687599331,14.439999999999998
26,ushuaia,-54.8,-68.3,74,0,1.54,AR,1687599353,-2.0400000000000205
27,marystown,47.1666,-55.1483,97,55,4.14,CA,1687599366,12.54000000000002
28,guanagazapa,14.2253,-90.6433,93,100,2.23,GT,1687599367,24.629999999999995
29,upernavik,72.7868,-56.1549,87,40,1.61,GL,1687599368,1.0299999999999727
30,esperance,-33.8667,121.9,90,100,6.14,AU,1687599369,9.889999999999986
31,mataura,-46.1927,168.8643,95,36,1.07,NZ,1687599369,5.990000000000009
32,perth,-31.9333,115.8333,80,20,6.69,AU,1687599124,15.029999999999973
33,qaanaaq,77.484,-69.3632,94,99,1.05,GL,1687599372,-0.13999999999998636
34,ribeira grande,38.5167,-28.7,83,20,5.66,PT,1687599372,21.689999999999998
35,hilo,19.7297,-155.09,96,100,2.24,US,1687599373,24.189999999999998
36,pacific grove,36.6177,-121.9166,87,100,2.57,US,1687599374,13.970000000000027
37,jiazi,22.8779,116.067,83,97,3.99,CN,1687599375,28.089999999999975
38,okhotsk,59.3833,143.3,78,26,3.65,RU,1687599376,13.230000000000018
39,nikolskoye,59.7035,30.7861,43,10,4.32,RU,1687599379,25.100000000000023
40,itarema,-2.9248,-39.9167,82,54,5.44,BR,1687599379,24.74000000000001
41,tessalit,20.1986,1.0114,8,9,5.0,ML,1687599381,40.19999999999999
42,georgetown,5.4112,100.3354,70,20,3.6,MY,1687599383,33.110000000000014
43,barrow,71.2906,-156.7887,86,100,11.32,US,1687599383,1.160000000000025
44,teluk intan,4.0259,101.0213,77,100,2.24,MY,1687599384,32.160000000000025
45,puerto madryn,-42.7692,-65.0385,80,29,4.13,AR,1687599120,8.79000000000002
46,udachnyy,66.4167,112.4,30,69,5.06,RU,1687599386,21.50999999999999
47,chokurdakh,70.6333,147.9167,36,97,1.15,RU,1687599387,22.220000000000027
48,corinto,37.9407,22.9573,29,0,1.81,GR,1687599388,32.31
49,naze,28.3667,129.4833,87,82,2.9,JP,1687599389,25.660000000000025
50,arraial do cabo,-22.9661,-42.0278,94,0,2.06,BR,1687599390,18.069999999999993
51,albany,42.6001,-73.9662,90,100,1.49,US,1687599001,21.19999999999999
52,sumbe,-11.2061,13.8437,64,2,3.05,AO,1687599391,24.839999999999975
53,samana,19.2056,-69.3369,89,58,3.65,DO,1687599392,25.399999999999977
54,khatanga,71.9667,102.5,45,100,7.19,RU,1687599392,15.069999999999993
55,port alfred,-33.5906,26.891,71,23,0.89,ZA,1687599393,19.139999999999986
56,half moon bay,37.4636,-122.4286,86,100,3.6,US,1687599394,14.649999999999977
57,lebu,-37.6167,-73.65,95,100,2.46,CL,1687599394,12.569999999999993
58,gat,31.61,34.7642,21,0,6.18,IL,1687599396,33.14999999999998
59,bredasdorp,-34.5322,20.0403,94,99,3.21,ZA,1687599397,13.54000000000002
60,novosemeykino,53.3833,50.3667,42,0,4.0,RU,1687599394,18.680000000000007
61,jining,35.405,116.5814,23,9,7.66,CN,1687599398,36.370000000000005
62,pecos,31.4229,-103.4932,34,0,5.66,US,1687599399,32.50999999999999
63,mehamn,71.0357,27.8492,87,100,3.6,NO,1687599399,12.120000000000005
64,yar-sale,66.8333,70.8333,61,100,6.61,RU,1687599401,9.199999999999989
65,san ramon de la nueva oran,-23.1322,-64.326,83,0,0.89,AR,1687599403,12.610000000000014
66,aswan,24.0934,32.907,11,0,2.32,EG,1687599404,38.44999999999999
67,tuktoyaktuk,69.4541,-133.0374,90,67,4.01,CA,1687599405,0.8899999999999864
68,conceicao do araguaia,-8.2578,-49.2647,64,54,1.56,BR,1687599405,20.939999999999998
69,la ronge,55.1001,-105.2842,87,0,0.0,CA,1687599406,10.29000000000002
70,puerto ayora,-0.7393,-90.3518,96,80,0.45,EC,1687599406,22.680000000000007
71,port elizabeth,-33.918,25.5701,65,20,7.2,ZA,1687599407,19.310000000000002
72,vung tau,10.346,107.0843,75,71,7.18,VN,1687599408,29.439999999999998
73,saint-philippe,-21.3585,55.7679,80,42,3.88,RE,1687599409,23.920000000000016
74,bengkulu,-3.8004,102.2655,87,26,2.16,ID,1687599409,27.170000000000016
75,craig,40.5153,-107.5464,81,0,0.0,US,1687599410,6.939999999999998
76,hermanus,-34.4187,19.2345,82,91,2.21,ZA,1687599411,16.149999999999977
77,port macquarie,-31.4333,152.9167,65,0,3.11,AU,1687599412,11.199999999999989
78,formosa do rio preto,-11.0483,-45.1931,61,84,1.04,BR,1687599412,17.129999999999995
79,mar del plata,-38.0023,-57.5575,92,100,1.34,AR,1687599154,12.420000000000016
80,mount pleasant,32.7941,-79.8626,97,40,2.06,US,1687599191,25.149999999999977
81,hualmay,-11.0964,-77.6139,81,63,1.68,PE,1687599414,19.310000000000002
82,sao joao do piaui,-8.3581,-42.2467,68,54,3.67,BR,1687599415,22.44999999999999
83,ibra,22.6906,58.5334,13,23,1.5,OM,1687599416,45.60000000000002
84,ancud,-41.8697,-73.8203,87,14,6.18,CL,1687599417,9.920000000000016
85,surgut,61.25,73.4167,70,40,4.02,RU,1687599418,9.25
86,birjand,32.8663,59.2211,6,40,3.09,IR,1687599216,41.410000000000025
87,hobyo,5.3505,48.5268,59,32,10.91,SO,1687599419,29.939999999999998
88,san patricio,28.017,-97.5169,97,20,3.1,US,1687599420,29.069999999999993
89,jiuquan,39.7432,98.5174,26,54,8.65,CN,1687599146,27.25999999999999
90,bonavista,48.6499,-53.1147,90,60,2.77,CA,1687599421,11.089999999999975
91,kui buri,12.0828,99.8543,60,100,2.44,TH,1687599422,31.720000000000027
92,castro,-24.7911,-50.0119,87,28,1.58,BR,1687599423,11.980000000000018
93,jibuti,11.5,42.5,19,39,3.54,DJ,1687599423,38.31
94,kruisfontein,-34.0033,24.7314,57,0,4.48,ZA,1687599424,17.860000000000014
95,mount isa,-20.7333,139.5,49,69,2.57,AU,1687599425,21.019999999999982
96,bluff,-46.6,168.3333,84,41,2.03,NZ,1687599426,9.079999999999984
97,semey,50.4111,80.2275,55,75,7.0,KZ,1687599427,17.269999999999982
98,mahebourg,-20.4081,57.7,53,40,3.6,MU,1687599429,26.310000000000002
99,ust-nera,64.5667,143.2,35,18,3.3,RU,1687599430,28.089999999999975
100,khandyga,62.6667,135.6,53,5,1.22,RU,1687599430,27.649999999999977
101,port-gentil,-0.7193,8.7815,65,20,3.6,GA,1687599431,27.129999999999995
102,harper,4.375,-7.7169,83,100,4.91,LR,1687599432,25.470000000000027
103,vao,-22.6667,167.4833,68,1,5.45,NC,1687599433,20.910000000000025
104,kiunga,-6.1219,141.2906,87,100,1.04,PG,1687599434,25.160000000000025
105,tarko-sale,64.9225,77.785,50,86,1.85,RU,1687599435,10.160000000000025
106,kot kapura,30.5833,74.9,17,15,3.21,IN,1687599435,46.10000000000002
107,acurenam,1.0322,10.6488,58,76,1.2,GQ,1687599436,26.170000000000016
108,provideniya,64.3833,-173.3,83,100,1.37,RU,1687599437,9.379999999999995
109,luderitz,-26.6481,15.1594,51,0,4.14,NA,1687599438,19.95999999999998
110,hithadhoo,-0.6,73.0833,73,37,4.59,MV,1687599439,28.29000000000002
111,beberibe,-4.1797,-38.1306,86,30,4.5,BR,1687599439,23.870000000000005
112,fortuna,40.5982,-124.1573,96,100,2.06,US,1687599440,13.439999999999998
113,dutlwe,-23.9833,23.9,31,0,5.37,BW,1687599441,21.80000000000001
114,kidal,18.4411,1.4078,17,0,6.81,ML,1687599442,38.660000000000025
115,morden,49.1919,-98.1014,94,75,1.03,CA,1687599443,15.199999999999989
116,barcelos,41.5388,-8.6151,40,15,1.32,PT,1687599428,31.769999999999982
117,tura,25.5198,90.2201,72,53,3.04,IN,1687599444,30.110000000000014
118,piacabucu,-10.4056,-36.4344,79,3,2.95,BR,1687599445,24.560000000000002
119,hofn,64.2539,-15.2082,91,100,1.78,IS,1687599445,10.720000000000027
120,teahupoo,-17.8333,-149.2667,81,18,2.97,PF,1687599446,21.129999999999995
121,escanaba,45.7453,-87.0646,100,0,0.0,US,1687599447,14.319999999999993
122,bambous virieux,-20.3428,57.7575,53,40,3.6,MU,1687599447,26.29000000000002
123,novyy urengoy,66.0833,76.6333,55,100,2.32,RU,1687599166,9.740000000000009
124,gizo,-8.103,156.8419,82,91,8.39,SB,1687599449,27.939999999999998
125,saint george,37.1041,-113.5841,17,0,2.06,US,1687599449,17.899999999999977
126,torrijos,39.9819,-4.2835,32,0,4.06,ES,1687599450,29.079999999999984
127,yhu,-25.05,-55.9167,83,0,3.04,PY,1687599451,17.060000000000002
128,aviles,43.5547,-5.9248,76,0,3.09,ES,1687599249,25.019999999999982
129,coruripe,-10.1256,-36.1756,78,2,3.12,BR,1687599452,24.230000000000018
130,boende,-0.2167,20.8667,76,97,0.99,CD,1687599454,26.80000000000001
131,bethel,41.3712,-73.414,90,100,0.0,US,1687599454,20.620000000000005
132,toowoomba,-27.55,151.9667,59,22,1.74,AU,1687599224,10.850000000000023
133,kaniama,-7.5667,24.1833,23,29,2.67,CD,1687599456,30.129999999999995
134,rio gallegos,-51.6226,-69.2181,93,100,3.09,AR,1687599456,2.180000000000007
135,chekhov,55.1431,37.4711,87,100,4.92,RU,1687599457,17.120000000000005
136,padang,-0.9492,100.3543,84,67,0.59,ID,1687599457,29.180000000000007
137,souillac,-20.5167,57.5167,53,40,3.6,MU,1687599459,26.360000000000014
138,ostrovnoy,68.0531,39.5131,46,79,2.57,RU,1687599461,19.920000000000016
139,koltsovo,54.9376,83.1825,49,100,1.92,RU,1687599461,16.810000000000002
140,butaritari,3.0707,172.7902,80,96,7.87,KI,1687599462,28.779999999999973
141,darhan,49.4867,105.9228,85,100,2.39,MN,1687599463,17.019999999999982
142,tripoli,32.8752,13.1875,60,0,4.08,LY,1687599464,27.170000000000016
143,lata,40.1629,-8.3327,25,2,0.4,PT,1687599466,25.600000000000023
144,porto novo,6.4965,2.6036,80,100,5.05,BJ,1687599467,25.05000000000001
145,te anau,-45.4167,167.7167,88,95,0.57,NZ,1687599468,7.319999999999993
146,umm kaddadah,13.6017,26.6876,35,23,5.67,SD,1687599469,32.81999999999999
147,rabo de peixe,37.8,-25.5833,94,20,4.63,PT,1687599470,19.879999999999995
148,nome,64.5011,-165.4064,94,100,2.06,US,1687599472,13.189999999999998
149,henties bay,-22.116,14.2845,75,71,2.62,NA,1687599472,15.629999999999995
150,east london,-33.0153,27.9116,68,0,6.17,ZA,1687599473,18.670000000000016
151,lodja,-3.4833,23.4333,52,90,1.25,CD,1687599474,30.379999999999995
152,vestmanna,62.1564,-7.1664,94,75,3.6,FO,1687599474,12.660000000000025
153,ampanihy,-24.7,44.75,32,1,4.99,MG,1687599475,21.839999999999975
154,emerald,-23.5333,148.1667,52,49,2.61,AU,1687599475,22.899999999999977
155,qaqortoq,60.7167,-46.0333,89,53,1.15,GL,1687599476,3.0299999999999727
156,cherskiy,68.75,161.3,51,44,2.27,RU,1687599478,14.529999999999973
157,oktyabrskoye,43.0645,44.7417,39,40,2.0,RU,1687599479,25.230000000000018
158,vila franca do campo,37.7167,-25.4333,80,8,2.21,PT,1687599479,20.379999999999995
159,fort nelson,58.8053,-122.7002,67,75,5.14,CA,1687599480,16.920000000000016
160,kilindoni,-7.9139,39.6668,68,18,7.83,TZ,1687599481,25.350000000000023
161,vila velha,-20.3297,-40.2925,95,75,1.54,BR,1687599482,20.120000000000005
162,sangar,63.9242,127.4739,67,24,2.7,RU,1687599483,23.19999999999999
163,lesnoye,58.2841,35.5158,69,100,0.44,RU,1687599484,20.04000000000002
164,ponta delgada,37.7333,-25.6667,94,20,4.63,PT,1687599484,20.55000000000001
165,erzurum,40.0,41.5,42,13,1.64,TR,1687599486,17.970000000000027
166,torbay,47.6666,-52.7314,83,0,11.32,CA,1687599313,16.75
167,norman wells,65.282,-126.8329,93,40,2.57,CA,1687599382,6.170000000000016
168,guerrero negro,27.9769,-114.0611,87,51,7.66,MX,1687599493,16.430000000000007
169,hambantota,6.1241,81.1185,52,20,7.72,LK,1687599494,35.339999999999975
170,ozark,37.0209,-93.206,91,0,1.84,US,1687599496,22.399999999999977
171,coquimbo,-29.9533,-71.3436,51,0,3.09,CL,1687599497,18.0
172,caldas novas,-17.7417,-48.625,66,100,1.38,BR,1687599485,13.839999999999975
173,volchansk,59.9378,60.081,38,100,2.96,RU,1687599499,17.579999999999984
174,lavrentiya,65.5833,-171.0,92,100,1.14,RU,1687599500,7.3799999999999955
175,noyabrsk,63.1994,75.4507,95,100,5.51,RU,1687599500,4.720000000000027
176,tapiramuta,-11.8472,-40.7914,96,55,0.98,BR,1687599501,13.870000000000005
177,nantucket,41.2835,-70.0995,100,100,2.57,US,1687599502,21.230000000000018
178,batagay,67.6333,134.6333,38,70,4.87,RU,1687599503,26.870000000000005
179,vostok,46.4856,135.8833,73,100,1.6,RU,1687599503,19.310000000000002
180,yershov,51.3513,48.2766,42,85,5.31,RU,1687599504,22.50999999999999
181,buraydah,26.326,43.975,6,0,5.35,SA,1687599505,43.39999999999998
182,golden,39.7555,-105.2211,33,0,5.14,US,1687599505,17.5
183,severo-kurilsk,50.6789,156.125,86,17,6.44,RU,1687599506,8.930000000000007
184,sorland,67.667,12.6934,93,100,5.89,NO,1687599507,9.069999999999993
185,esil,51.9556,66.4042,33,100,1.21,KZ,1687599507,19.160000000000025
186,thompson,55.7435,-97.8558,87,0,1.03,CA,1687599509,7.240000000000009
187,eufaula,31.8913,-85.1455,94,0,0.0,US,1687599510,20.170000000000016
188,tarakan,3.3,117.6333,74,20,2.57,ID,1687599511,30.870000000000005
189,hasaki,35.7333,140.8333,85,99,3.02,JP,1687599513,26.939999999999998
190,hargeysa,9.56,44.065,23,81,3.3,SO,1687599514,32.389999999999986
191,phayao,19.25,100.25,61,100,0.57,TH,1687599516,29.860000000000014
192,rawson,-43.3002,-65.1023,83,55,4.06,AR,1687599385,8.25
193,ballinasloe,53.3275,-8.2194,70,55,5.78,IE,1687599517,22.00999999999999
194,kasongo-lunda,-6.4667,16.8167,22,35,1.44,CD,1687599519,30.939999999999998
195,laguna,38.421,-121.4238,81,0,3.6,US,1687599519,15.370000000000005
196,moanda,-1.5575,13.2178,45,10,0.66,GA,1687599520,24.279999999999973
197,lagoa,39.05,-27.9833,82,10,5.3,PT,1687599521,19.339999999999975
198,kununurra,-15.7667,128.7333,45,51,0.0,AU,1687599516,30.139999999999986
199,alekseyevsk,57.8406,108.3492,48,100,2.07,RU,1687599522,24.29000000000002
200,aguada de pasajeros,22.385,-80.8508,96,91,2.04,CU,1687599523,25.069999999999993
201,lazaro cardenas,17.9583,-102.2,84,19,1.31,MX,1687599524,26.75999999999999
202,van,38.4924,43.3831,56,20,5.66,TR,1687599438,19.79000000000002
203,encheng,22.1839,112.3026,77,99,4.21,CN,1687599526,30.129999999999995
204,prieska,-29.6641,22.7474,21,0,5.27,ZA,1687599258,22.00999999999999
205,zhangye,38.9342,100.4517,23,65,4.32,CN,1687599529,27.74000000000001
206,beringovskiy,63.05,179.3167,87,91,0.75,RU,1687599530,5.990000000000009
207,spencer,43.1414,-95.1444,71,0,4.12,US,1687599531,22.20999999999998
208,muyezerskiy,63.9333,31.65,89,100,2.63,RU,1687599531,13.649999999999977
209,fairbanks,64.8378,-147.7164,76,75,1.54,US,1687599265,19.129999999999995
210,mushie,-3.0167,16.9,40,17,0.87,CD,1687599534,33.14999999999998
211,kuytun,54.3419,101.5036,52,70,1.1,RU,1687599535,21.939999999999998
212,the valley,18.217,-63.0578,77,40,7.41,AI,1687599537,28.069999999999993
213,cabedelo,-6.9811,-34.8339,83,37,6.0,BR,1687599538,23.519999999999982
214,constitucion,-35.3333,-72.4167,99,100,5.96,CL,1687599539,14.720000000000027
215,pilar,-9.5972,-35.9567,86,11,1.21,BR,1687599540,21.110000000000014
216,grand-lahou,5.1367,-5.0242,90,100,4.78,CI,1687599540,25.220000000000027
217,lompoc,34.6391,-120.4579,87,100,6.26,US,1687599541,14.470000000000027
218,yulara,-25.2406,130.9889,38,0,3.26,AU,1687599079,13.519999999999982
219,ibirite,-20.0219,-44.0589,75,94,1.0,BR,1687599542,11.990000000000009
220,fontem,5.4685,9.8818,94,97,0.54,CM,1687599543,20.49000000000001
221,bandiagara,14.3501,-3.6104,33,69,6.77,ML,1687599543,35.06999999999999
222,isangel,-19.55,169.2667,77,20,1.54,VU,1687599544,19.20999999999998
223,khash,28.2211,61.2158,7,3,7.61,IR,1687599545,41.629999999999995
224,saint-francois,46.4154,3.9054,50,0,3.6,FR,1687599546,25.529999999999973
225,haimen,23.1935,116.6142,84,92,4.49,CN,1687599546,30.089999999999975
226,aklavik,68.2191,-135.0107,67,2,2.55,CA,1687599547,4.660000000000025
227,agadir,30.4202,-9.5982,66,12,2.69,MA,1687599548,25.399999999999977
228,ust-kut,56.7938,105.7672,48,100,1.9,RU,1687599549,23.279999999999973
229,baherden,38.4362,57.4316,18,26,3.09,TM,1687599551,34.48000000000002
230,touros,-5.1989,-35.4608,88,24,5.51,BR,1687599551,24.269999999999982
231,aguimes,27.9054,-15.4461,60,40,8.23,ES,1687599552,23.29000000000002
232,lahij,13.1667,44.5833,30,8,3.4,YE,1687599553,37.27999999999997
233,iraray,8.9936,118.0511,79,82,1.13,PH,1687599553,27.879999999999995
234,chapais,49.7834,-74.8492,94,99,2.38,CA,1687599554,18.029999999999973
235,venado tuerto,-33.7456,-61.9688,94,100,2.82,AR,1687599554,11.689999999999998
236,matamba,-8.9833,33.9667,25,11,1.74,TZ,1687599555,19.879999999999995
237,praia,14.9215,-23.5087,73,20,8.23,CV,1687599556,26.44999999999999
238,rio cuarto,-33.1307,-64.3499,100,91,1.54,AR,1687599355,14.860000000000014
239,koungou,-12.7336,45.2042,54,0,7.2,YT,1687599557,29.99000000000001
240,alofi,-19.0595,-169.9187,94,96,3.6,NU,1687599558,23.089999999999975
241,eyl,7.9803,49.8164,42,65,10.69,SO,1687599558,33.74000000000001
242,fethiye,36.6217,29.1164,31,0,3.57,TR,1687599559,29.079999999999984
243,kyren,51.6828,102.1408,58,33,2.78,RU,1687599559,21.019999999999982
244,pisco,-13.7,-76.2167,72,100,1.03,PE,1687599560,19.180000000000007
245,chuy,-33.6971,-53.4616,87,100,1.76,UY,1687599561,13.699999999999989
246,kapaa,22.0752,-159.319,81,100,7.72,US,1687599562,27.329999999999984
247,caucaia,-3.7361,-38.6531,13,20,14.92,BR,1687599563,24.120000000000005
248,norilsk,69.3535,88.2027,86,100,1.38,RU,1687599563,11.5
249,coihaique,-45.5752,-72.0662,93,100,0.51,CL,1687599395,1.1200000000000045
250,wundanyi,-3.4019,38.364,36,55,4.01,KE,1687599565,23.75
251,caravelas,-17.7125,-39.2481,91,100,1.64,BR,1687599566,21.339999999999975
252,sao miguel do araguaia,-13.275,-50.1628,52,93,1.84,BR,1687599567,19.620000000000005
253,zeya,53.75,127.2667,73,64,0.96,RU,1687599568,18.069999999999993
254,tacna,-18.0056,-70.2483,85,0,0.21,PE,1687599432,14.649999999999977
255,dzilam gonzalez,21.2833,-88.9333,93,100,2.04,MX,1687599570,25.120000000000005
256,gikongoro,-2.464,29.5739,57,96,2.78,RW,1687599570,21.620000000000005
257,vilyuysk,63.7553,121.6247,66,100,1.25,RU,1687599571,23.579999999999984
258,grindavik,63.8424,-22.4338,100,100,5.66,IS,1687599572,13.120000000000005
259,airai,-8.9266,125.4092,94,99,1.13,TL,1687599573,16.30000000000001
260,port hardy,50.6996,-127.4199,100,100,1.03,CA,1687599574,10.25
261,samarinda,-0.5,117.15,89,86,1.39,ID,1687599574,26.20999999999998
262,zyryanka,65.75,150.85,36,100,4.01,RU,1687599575,24.649999999999977
263,drummondville,45.8834,-72.4824,81,100,1.85,CA,1687599441,19.660000000000025
264,karlskrona,56.1616,15.5866,54,100,2.84,SE,1687599576,22.399999999999977
265,bathurst,-33.4166,149.5806,85,7,1.66,AU,1687599577,3.769999999999982
266,mount gambier,-37.8333,140.7667,86,97,6.37,AU,1687599578,9.730000000000018
267,saskylakh,71.9167,114.0833,80,96,4.55,RU,1687599579,9.490000000000009
268,sinegorye,62.0788,150.477,45,97,1.54,RU,1687599580,25.110000000000014
269,salamiyah,35.0113,37.0532,18,0,3.58,SY,1687599580,33.54000000000002
270,comodoro rivadavia,-45.8667,-67.5,100,100,1.03,AR,1687599581,6.069999999999993
271,faanui,-16.4833,-151.75,72,6,3.72,PF,1687599582,27.279999999999973
272,nambucca heads,-30.65,153.0,62,13,2.6,AU,1687599583,11.259999999999991
273,whyalla,-33.0333,137.5833,45,3,7.87,AU,1687599584,12.509999999999991
274,pangnirtung,66.1451,-65.7125,82,69,0.61,CA,1687599585,0.8100000000000023
275,sitka,57.0531,-135.33,88,100,0.0,US,1687599553,13.089999999999975
276,victoria,22.2855,114.1577,85,100,4.02,HK,1687599588,30.360000000000014
277,nivala,63.9167,24.9667,66,93,1.66,FI,1687599589,17.19999999999999
278,tiksi,71.6872,128.8694,84,100,0.26,RU,1687599589,8.019999999999982
279,lucea,18.451,-78.1736,78,94,3.65,JM,1687599590,27.069999999999993
280,nyurba,63.2842,118.3319,48,82,1.82,RU,1687599590,25.069999999999993
281,goderich,43.7501,-81.7165,94,95,1.03,CA,1687599591,17.329999999999984
282,sovetskoye,52.2861,85.4131,84,100,3.99,RU,1687599592,17.370000000000005
283,vestmannaeyjar,63.4427,-20.2734,100,100,10.29,IS,1687599592,10.699999999999989
284,araxa,-19.5933,-46.9406,72,83,1.29,BR,1687599593,11.04000000000002
285,abha,18.2164,42.5053,7,20,3.09,SA,1687599525,30.29000000000002
286,dwarka,22.2394,68.9678,68,92,5.17,IN,1687599594,30.660000000000025
287,agadez,19.75,10.25,20,4,4.37,NE,1687599595,36.45999999999998
288,husavik,66.0449,-17.3389,64,18,3.53,IS,1687599595,15.899999999999977
289,paamiut,61.994,-49.6678,88,99,8.99,GL,1687599596,2.839999999999975
290,kaeo,-35.1,173.7833,96,18,1.91,NZ,1687599597,13.110000000000014
291,gotsu,35.0,132.2167,88,98,3.06,JP,1687599597,21.49000000000001
292,horizontina,-27.6258,-54.3078,95,10,1.86,BR,1687599598,14.870000000000005
293,lokosovo,61.1333,74.8167,59,100,4.73,RU,1687599599,9.060000000000002
294,kannur,11.8675,75.3576,70,97,3.44,IN,1687599600,29.019999999999982
295,marrakesh,31.6315,-8.0083,54,0,2.06,MA,1687599416,27.189999999999998
296,bourail,-21.5667,165.4833,80,28,1.24,NC,1687599604,17.70999999999998
297,anyama,5.4946,-4.0518,84,98,2.71,CI,1687599605,26.600000000000023
298,khasan,42.4308,130.6434,91,52,3.71,RU,1687599605,18.120000000000005
299,verrettes,19.05,-72.4667,92,100,1.73,HT,1687599606,24.329999999999984
300,cayenne,4.9333,-52.3333,100,0,0.0,GF,1687599309,22.170000000000016
301,madarounfa,13.3087,7.156,38,92,3.15,NE,1687599608,22.279999999999973
302,kansas city,39.0997,-94.5786,86,68,0.45,US,1687599585,24.480000000000018
303,leningradskiy,69.3833,178.4167,94,98,0.26,RU,1687599610,2.5
304,belen,36.4891,36.2233,21,0,3.09,TR,1687599610,30.230000000000018
305,sur,22.5667,59.5289,63,34,2.97,OM,1687599611,32.99000000000001
306,sonoita,31.85,-112.8333,9,0,0.9,MX,1687599612,23.0
307,lusambo,-4.9667,23.45,39,76,0.21,CD,1687599613,33.620000000000005
308,ekhabi,53.5102,142.9671,88,21,5.39,RU,1687599613,8.379999999999995
309,umea,63.8284,20.2597,59,40,5.14,SE,1687599614,19.110000000000014
310,kalmunai,7.4167,81.8167,65,61,7.05,LK,1687599615,30.899999999999977
311,upata,8.0086,-62.3989,97,61,2.47,VE,1687599616,24.149999999999977
312,brae,60.3964,-1.353,85,61,3.58,GB,1687599617,16.279999999999973
313,conakry,9.538,-13.6773,78,75,3.09,GN,1687599618,28.189999999999998
314,remanso,-9.6179,-42.0831,69,50,3.22,BR,1687599618,21.420000000000016
315,baykit,61.67,96.37,59,93,2.9,RU,1687599619,16.00999999999999
316,ponta do sol,32.6667,-17.1,71,2,1.33,PT,1687599620,24.99000000000001
317,amapa,1.0,-52.0,98,38,0.52,BR,1687599621,21.879999999999995
318,sheltozero,61.3667,35.3667,83,100,1.93,RU,1687599621,15.029999999999973
319,vokhma,58.9303,46.7586,48,91,1.16,RU,1687599622,19.44999999999999
320,coahuayana,18.7333,-103.6833,85,11,1.42,MX,1687599622,25.160000000000025
321,xingyi,24.1877,102.817,67,90,1.16,CN,1687599623,21.470000000000027
322,damghan,36.1683,54.348,21,71,3.09,IR,1687599624,33.10000000000002
323,brezice,45.9033,15.5911,91,75,1.54,SI,1687599624,27.20999999999998
324,ures,29.4333,-110.4,14,18,0.46,MX,1687599625,27.910000000000025
325,port lincoln,-34.7333,135.8667,71,23,12.28,AU,1687599626,12.910000000000025
326,nelson bay,-32.7167,152.15,68,18,1.79,AU,1687599627,14.04000000000002
327,duns,55.777,-2.3457,85,100,6.38,GB,1687599627,22.129999999999995
328,tuatapere,-46.1333,167.6833,86,71,1.58,NZ,1687599629,9.019999999999982
329,garissa,-0.4536,39.6401,35,21,9.57,KE,1687599630,32.19999999999999
330,jalu,29.0331,21.5482,21,0,3.85,LY,1687599630,32.64999999999998
331,avarua,-21.2078,-159.775,100,100,1.03,CK,1687599632,22.180000000000007
332,sao joao da barra,-21.6403,-41.0511,73,83,4.14,BR,1687599633,18.19999999999999
333,romny,50.751,33.4747,61,100,3.22,UA,1687599634,24.620000000000005
334,jacareacanga,-6.2222,-57.7528,83,58,0.51,BR,1687599634,22.180000000000007
335,kamenka,51.3223,42.7678,60,93,3.93,RU,1687599635,24.620000000000005
336,riyadh,24.6877,46.7219,6,21,2.53,SA,1687599577,43.23000000000002
337,witu,-2.3889,40.4382,54,21,8.35,KE,1687599636,29.24000000000001
338,cambridge,43.3601,-80.3127,98,100,0.0,CA,1687599588,19.089999999999975
339,balad,34.0164,44.1453,10,0,6.32,IQ,1687599639,43.14999999999998
340,puerto rico,-26.796,-55.024,98,26,2.02,AR,1687599639,16.410000000000025
341,sucua,-2.4667,-78.1667,97,90,1.53,EC,1687599640,18.49000000000001
342,maku,39.2911,44.4521,52,57,2.54,IR,1687599640,21.930000000000007
343,jucas,-6.5253,-39.5275,73,16,3.26,BR,1687599641,23.060000000000002
344,pescara,42.3333,13.95,73,22,3.04,IT,1687599641,25.649999999999977
345,lianyuan,27.6883,111.6642,95,100,1.05,CN,1687599642,21.980000000000018
346,deputatskiy,69.3,139.9,52,71,1.52,RU,1687599643,21.80000000000001
347,konibodom,40.2843,70.4426,11,0,9.25,TJ,1687599645,36.76999999999998
348,saldanha,-33.0117,17.9442,71,47,2.11,ZA,1687599645,15.180000000000007
349,kushikino,31.7167,130.2667,81,100,0.15,JP,1687599647,25.850000000000023
350,san cristobal,7.7669,-72.225,97,100,0.44,VE,1687599648,18.44999999999999
351,avera,33.194,-82.5271,86,1,2.54,US,1687599649,19.899999999999977
352,ahipara,-35.1667,173.1667,90,15,0.89,NZ,1687599650,12.269999999999982
353,kysyl-syr,63.8986,122.7617,61,85,2.49,RU,1687599651,24.310000000000002
354,port augusta,-32.5,137.7667,43,0,5.47,AU,1687599652,11.079999999999984
355,najran,17.4924,44.1277,9,2,4.44,SA,1687599653,37.50999999999999
356,rabat,33.9911,-6.8401,69,0,2.57,MA,1687599654,26.189999999999998
357,nemuro,43.3236,145.575,91,100,3.71,JP,1687599654,13.199999999999989
358,visnes,59.3556,5.2242,55,0,3.09,NO,1687599655,18.180000000000007
359,hamilton,39.1834,-84.5333,93,100,1.54,US,1687599466,20.060000000000002
360,zhuhai,22.2769,113.5678,84,40,5.14,CN,1687599597,30.629999999999995
361,pinawa,50.1489,-95.8811,65,71,1.85,CA,1687599657,14.620000000000005
362,nandikotkur,15.8667,78.2667,41,93,4.85,IN,1687599659,34.410000000000025
363,mapastepec,15.4333,-92.9,88,100,1.71,MX,1687599659,24.910000000000025
364,kompaniyivka,48.2511,32.208,39,23,5.47,UA,1687599660,31.769999999999982
365,margate,51.3813,1.3862,70,0,0.45,GB,1687599522,23.970000000000027
366,murgab,37.4966,61.9714,13,0,6.17,TM,1687599661,38.079999999999984
367,volksrust,-27.3654,29.8818,21,0,2.84,ZA,1687599662,19.470000000000027
368,waingapu,-9.6567,120.2641,75,43,5.46,ID,1687599663,26.99000000000001
369,trinidad,-14.8333,-64.9,78,98,1.56,BO,1687599663,24.04000000000002
370,hokitika,-42.7167,170.9667,80,100,2.12,NZ,1687599666,13.620000000000005
371,itatiaia,-22.4961,-44.5633,76,100,0.75,BR,1687599666,15.759999999999991
372,abu samrah,35.3029,37.1841,18,0,3.08,SY,1687599667,33.360000000000014
373,cabo san lucas,22.8909,-109.9124,75,5,1.36,MX,1687599628,27.660000000000025
374,borogontsy,62.6683,131.1683,58,18,0.71,RU,1687599668,26.74000000000001
375,jackson,42.4165,-122.8345,83,0,1.54,US,1687599669,16.079999999999984
376,boguchany,58.3814,97.4531,35,77,2.15,RU,1687599669,20.439999999999998
377,novoilinsk,51.6829,108.7143,53,99,3.58,RU,1687599670,23.439999999999998
378,bilibino,68.0546,166.4372,52,48,2.58,RU,1687599671,14.629999999999995
379,saint anthony,45.0205,-93.218,83,0,4.12,US,1687599671,21.139999999999986
380,chacabuco,-34.6417,-60.4739,91,100,2.29,AR,1687599487,12.269999999999982
381,clyde river,70.4692,-68.5914,93,100,4.63,CA,1687599672,1.2799999999999727
382,oxford,51.7522,-1.256,74,75,4.63,GB,1687599413,24.100000000000023
383,robertsport,6.7533,-11.3686,80,52,1.91,LR,1687599674,26.730000000000018
384,terrasini,38.146,13.0844,74,20,6.69,IT,1687599674,29.30000000000001
385,freeport,40.6576,-73.5832,92,100,4.63,US,1687599435,20.980000000000018
386,kachug,53.9606,105.8817,77,100,3.04,RU,1687599677,16.04000000000002
387,gamba,-2.65,10.0,67,24,3.67,GA,1687599677,25.870000000000005
388,pavilosta,56.8879,21.1859,65,61,5.18,LV,1687599678,22.100000000000023
389,ketchikan,55.3422,-131.6461,88,100,2.06,US,1687599678,14.410000000000025
390,bucerias,20.75,-105.3333,84,9,1.17,MX,1687599679,25.519999999999982
391,olafsvik,64.8945,-23.7142,88,100,3.2,IS,1687599680,10.670000000000016
392,sobolevo,54.4299,31.8996,53,98,2.68,RU,1687599681,24.610000000000014
393,menongue,-14.6585,17.691,18,0,4.3,AO,1687599683,23.939999999999998
394,sarangani,5.4033,125.4636,74,81,6.1,PH,1687599683,28.839999999999975
395,kutum,14.2,24.6667,25,31,0.69,SD,1687599685,31.44999999999999
396,hirara,24.8,125.2833,79,40,5.66,JP,1687599686,29.30000000000001
397,cabinda,-5.55,12.2,70,67,3.38,AO,1687599687,25.94999999999999
398,dingle,10.9995,122.6711,84,100,1.63,PH,1687599687,27.230000000000018
399,semirom,31.4167,51.5667,7,0,4.39,IR,1687599688,30.0
400,dengzhou,37.8086,120.7508,44,0,7.07,CN,1687599689,29.399999999999977
401,hervey bay,-25.2986,152.8535,88,62,3.6,AU,1687599411,19.55000000000001
402,marawi,7.9986,124.2928,94,89,0.48,PH,1687599692,21.95999999999998
403,tacuarembo,-31.7333,-55.9833,92,84,1.29,UY,1687599693,14.930000000000007
404,hohhot,40.8106,111.6522,28,0,5.0,CN,1687599694,29.310000000000002
405,portland,45.5234,-122.6762,82,0,2.57,US,1687599585,13.899999999999977
406,abbeville,50.1,1.8333,52,0,2.05,FR,1687599557,22.649999999999977
407,sao domingos,-13.3983,-46.3183,62,90,2.59,BR,1687599696,15.680000000000007
408,guerande,47.3291,-2.4283,59,0,3.12,FR,1687599696,28.180000000000007
409,saint-joseph,-21.3667,55.6167,81,30,3.74,RE,1687599697,23.360000000000014
410,kadoma,34.7333,135.5833,49,75,3.6,JP,1687599698,28.149999999999977
411,kabompo,-13.5927,24.2008,22,0,4.1,ZM,1687599698,25.54000000000002
412,alice springs,-23.7,133.8833,24,40,2.57,AU,1687599699,17.899999999999977
413,broome,42.2506,-75.833,90,100,1.54,US,1687599699,20.399999999999977
414,filingue,14.3521,3.3168,41,84,7.43,NE,1687599701,34.370000000000005
415,mao,39.8885,4.2658,42,0,9.77,ES,1687599701,29.45999999999998
416,katsuura,35.1333,140.3,91,100,3.1,JP,1687599702,23.05000000000001
417,vryburg,-26.9566,24.7284,26,0,5.31,ZA,1687599702,22.269999999999982
418,carnarvon,-24.8667,113.6333,57,0,6.74,AU,1687599703,17.319999999999993
419,basco,20.4487,121.9702,82,100,7.31,PH,1687599704,28.620000000000005
420,sapa,5.1544,120.3241,74,41,1.39,PH,1687599704,28.329999999999984
421,porto murtinho,-21.6989,-57.8825,55,0,2.67,BR,1687599705,20.339999999999975
422,motril,36.7507,-3.5179,58,0,2.0,ES,1687599707,31.410000000000025
423,narsaq,60.9167,-46.05,78,31,0.98,GL,1687599709,8.269999999999982
424,solnechnyy,50.7214,136.6319,67,35,3.14,RU,1687599710,22.029999999999973
425,samarai,-10.6167,150.6667,74,91,6.37,PG,1687599711,26.160000000000025
426,palmer,42.1584,-72.3287,83,100,1.54,US,1687599714,20.839999999999975
427,santiago,-33.4569,-70.6483,91,75,3.09,CL,1687599425,16.980000000000018
428,acajutla,13.5928,-89.8275,82,100,2.21,SV,1687599715,26.220000000000027
429,walvis bay,-22.9575,14.5053,87,100,1.54,NA,1687599715,12.980000000000018
430,khorixas,-20.3667,14.9667,13,0,9.71,NA,1687599717,26.660000000000025
431,lampa,-33.2833,-70.9,94,75,3.09,CL,1687599717,15.189999999999998
432,shingu,33.7333,135.9833,82,100,1.24,JP,1687599719,24.120000000000005
433,raudeberg,61.9875,5.1352,77,100,0.88,NO,1687599719,17.519999999999982
434,troitskoye,52.9821,84.6757,87,100,2.94,RU,1687599720,14.399999999999977
435,bukachacha,52.9833,116.9167,41,100,4.38,RU,1687599721,25.069999999999993
436,kapoeta,4.7717,33.5903,76,93,2.23,SS,1687599721,24.149999999999977
437,christchurch,-43.5333,172.6333,91,100,8.23,NZ,1687599675,13.430000000000007
438,inongo,-1.95,18.2667,88,96,0.96,CD,1687599723,21.769999999999982
439,xudat,41.631,48.681,66,98,2.57,AZ,1687599724,22.45999999999998
440,mundo nuevo,18.7,-95.5,86,100,4.07,MX,1687599725,26.00999999999999
441,north platte,41.1239,-100.7654,86,20,4.02,US,1687599726,17.439999999999998
442,tabas,33.5959,56.9244,10,72,2.23,IR,1687599727,43.19999999999999
443,roald,62.5833,6.1333,67,0,3.09,NO,1687599728,18.670000000000016
444,eganville,45.5334,-77.0994,98,100,0.71,CA,1687599728,18.769999999999982
445,dunedin,-45.8742,170.5036,85,100,3.58,NZ,1687599729,12.259999999999991
446,kitimat,54.0524,-128.6534,72,0,2.24,CA,1687599730,15.529999999999973
447,chicama,-7.8447,-79.1469,88,93,1.61,PE,1687599731,22.44999999999999
448,marsabit,2.3284,37.9899,43,50,5.43,KE,1687599731,24.839999999999975
449,meulaboh,4.1363,96.1285,72,54,1.75,ID,1687599732,28.639999999999986
450,miyang,24.4042,103.4428,77,97,0.66,CN,1687599733,22.80000000000001
451,texarkana,33.4251,-94.0477,76,0,2.57,US,1687599735,24.269999999999982
452,cidreira,-30.1811,-50.2056,95,100,1.59,BR,1687599736,18.129999999999995
453,donnacona,46.6804,-71.7239,93,100,0.91,CA,1687599737,19.689999999999998
454,mugumu,-1.85,34.7,73,100,1.69,TZ,1687599738,19.269999999999982
455,college,64.8569,-147.8028,74,75,1.54,US,1687599738,19.120000000000005
456,alyangula,-13.8483,136.4192,86,42,4.22,AU,1687599739,23.850000000000023
457,pierre,44.3683,-100.351,87,75,12.35,US,1687599740,15.860000000000014
458,sidney,-33.8679,151.2073,51,0,4.63,AU,1687599721,15.759999999999991
459,kautokeino,69.0125,23.0412,43,67,2.28,NO,1687599742,21.069999999999993
460,tornio,65.8481,24.1466,97,97,3.75,FI,1687599742,17.160000000000025
461,ciro marina,39.3732,17.126,68,86,4.66,IT,1687599743,33.079999999999984
462,macaubas,-13.0194,-42.6986,74,69,0.97,BR,1687599744,15.829999999999984
463,petropavlovsk-kamchatskiy,53.0452,158.6483,55,40,3.0,RU,1687599745,17.480000000000018
464,berberati,4.2612,15.7922,74,99,1.34,CF,1687599746,25.560000000000002
465,canela,-29.3656,-50.8156,94,79,1.74,BR,1687599714,15.310000000000002
466,komsomolskiy,40.4272,71.7189,12,0,2.06,UZ,1687599747,35.55000000000001
467,yerbogachen,61.2767,108.0108,36,78,2.12,RU,1687599748,22.689999999999998
468,sychevka,55.8252,34.2736,59,96,4.61,RU,1687599749,22.629999999999995
469,kalianget,-7.05,113.9333,71,6,3.22,ID,1687599750,27.110000000000014
470,swan hill,-35.3378,143.5544,55,42,4.43,AU,1687599751,9.319999999999993
471,geraldton,-28.7667,114.6,72,40,2.06,AU,1687599751,16.379999999999995
472,edgewater,28.9889,-80.9023,91,70,2.78,US,1687599752,23.54000000000002
473,verkhoyansk,67.5447,133.385,34,48,5.25,RU,1687599752,28.319999999999993
474,labuhan,-6.8844,112.2051,64,12,3.85,ID,1687599754,28.029999999999973
475,puerto quijarro,-17.7833,-57.7667,61,23,0.43,BO,1687599755,18.720000000000027
476,kuusamo,65.9667,29.1833,46,40,6.17,FI,1687599756,21.170000000000016
477,great yarmouth,52.6083,1.7305,68,1,2.74,GB,1687599757,26.54000000000002
478,aykhal,66.0,111.5,40,99,6.71,RU,1687599758,18.79000000000002
479,koson,39.0375,65.585,12,40,8.99,UZ,1687599759,38.329999999999984
480,lindi,-10.0,39.7167,31,96,4.03,TZ,1687599760,31.389999999999986
481,flinders,-34.5833,150.8552,65,82,1.34,AU,1687599762,12.029999999999973
482,chumikan,54.7183,135.315,98,99,0.84,RU,1687599763,12.970000000000027
483,poum,-20.2333,164.0167,69,46,7.24,NC,1687599764,21.670000000000016
484,krasnyy,54.5678,31.4333,47,99,3.39,RU,1687599765,25.589999999999975
485,kieta,-6.2167,155.6333,85,34,2.51,PG,1687599765,26.680000000000007
486,hare bay,48.8499,-54.0148,74,27,2.23,CA,1687599766,15.79000000000002
487,longyearbyen,78.2186,15.6401,81,75,4.63,SJ,1687599768,6.060000000000002
488,paracuru,-3.41,-39.0306,84,47,5.36,BR,1687599769,24.100000000000023
489,puerto leguizamo,-0.1934,-74.7819,99,60,0.71,CO,1687599770,21.420000000000016
490,meiganga,6.5167,14.3,70,94,2.64,CM,1687599772,24.610000000000014
491,north bend,43.4065,-124.2243,88,100,3.6,US,1687599774,13.100000000000023
492,rodez,44.5,2.5833,53,0,2.06,FR,1687599774,25.170000000000016
493,sukhobuzimskoye,56.5,93.2728,46,53,1.55,RU,1687599776,21.230000000000018
494,faya,18.3851,42.4509,21,0,0.24,SA,1687599777,30.439999999999998
495,vardo,70.3705,31.1107,76,78,4.63,NO,1687599778,13.139999999999986
496,necochea,-38.5473,-58.7368,87,100,5.51,AR,1687599779,12.720000000000027
497,barra do corda,-5.5,-45.25,72,70,0.79,BR,1687599780,22.420000000000016
498,douai,50.3333,3.1667,51,0,1.34,FR,1687599781,25.629999999999995
499,birao,10.2849,22.7882,56,57,2.91,CF,1687599782,29.94999999999999
500,miri,4.4148,114.0089,66,40,2.06,MY,1687599782,32.23000000000002
501,san rafael,-34.6177,-68.3301,51,46,2.31,AR,1687599783,13.449999999999989
502,mailani,28.2833,80.35,37,98,0.22,IN,1687599784,38.47000000000003
503,sinnamary,5.3833,-52.95,91,15,2.99,GF,1687599784,25.029999999999973
504,banjarmasin,-3.3244,114.591,73,65,2.29,ID,1687599785,32.23000000000002
505,varna,43.2167,27.9167,45,0,5.14,BG,1687599787,31.980000000000018
506,fiumicino,41.7675,12.2291,64,40,4.63,IT,1687599788,29.939999999999998
507,sudislavl,57.8817,41.7083,53,94,2.47,RU,1687599789,19.610000000000014
508,matay,28.419,30.7792,15,0,6.33,EG,1687599790,36.47000000000003
509,wlingi,-8.0776,112.3311,74,24,2.28,ID,1687599791,24.589999999999975
510,krasnyy klyuch,55.3863,56.6529,60,57,3.2,RU,1687599792,17.839999999999975
511,aksu,41.1231,80.2644,8,34,4.06,CN,1687599792,37.120000000000005
512,carauari,-4.8828,-66.8958,97,86,0.71,BR,1687599793,22.360000000000014
513,codajas,-3.8367,-62.0569,96,98,0.96,BR,1687599794,22.45999999999998
514,sept-iles,50.2001,-66.3821,90,100,2.06,CA,1687599795,15.439999999999998
515,myskhako,44.6714,37.7433,53,1,1.38,RU,1687599795,27.029999999999973
516,bongandanga,1.5,21.05,75,92,1.42,CD,1687599796,25.95999999999998
517,mabaruma,8.2,-59.7833,98,29,0.87,GY,1687599797,23.100000000000023
518,bosaso,11.2842,49.1816,56,0,4.63,SO,1687599798,36.139999999999986
519,alappuzha,9.49,76.3264,73,100,4.21,IN,1687599799,30.70999999999998
520,brufut,13.3814,-16.7518,83,0,1.54,GM,1687599799,26.19999999999999
521,pitogo,13.7847,122.0881,81,99,0.85,PH,1687599800,27.829999999999984
522,sayyan,15.1718,44.3244,26,76,3.08,YE,1687599801,24.060000000000002
523,aktau,43.65,51.2,31,56,5.09,KZ,1687599789,25.470000000000027
524,kokopo,-4.352,152.2633,86,10,2.9,PG,1687599802,25.55000000000001
525,msanga,-6.05,36.0333,27,98,2.88,TZ,1687599803,24.839999999999975
526,bandarbeyla,9.4942,50.8122,45,44,9.98,SO,1687599804,32.660000000000025
527,morant bay,17.8815,-76.4093,86,100,3.15,JM,1687599805,27.939999999999998
528,maracas,-13.4411,-40.4308,90,73,0.95,BR,1687599806,13.620000000000005
529,banamba,13.55,-7.45,44,61,7.23,ML,1687599807,32.60000000000002
530,quatre cocos,-20.2078,57.7625,57,3,2.69,MU,1687599808,26.20999999999998
531,antigonish,45.6169,-61.9986,86,24,0.89,CA,1687599809,16.720000000000027
532,indiaroba,-11.5192,-37.5117,90,71,1.52,BR,1687599810,22.769999999999982
533,fillan,63.6064,8.9696,71,97,2.4,NO,1687599811,14.839999999999975
534,rio claro,-22.4114,-47.5614,78,84,2.16,BR,1687599534,14.04000000000002
535,omsukchan,62.5333,155.8,41,95,1.12,RU,1687599812,18.569999999999993
536,remontnoye,46.5614,43.6501,32,30,5.61,RU,1687599813,28.430000000000007
537,bubaque,11.2833,-15.8333,80,100,6.01,GW,1687599814,27.720000000000027
538,saint-pierre,-21.3393,55.4781,73,100,6.17,RE,1687599814,23.970000000000027
539,umm lajj,25.0213,37.2685,46,0,5.92,SA,1687599818,32.81999999999999
540,antofagasta,-23.65,-70.4,85,25,2.08,CL,1687599819,17.75
541,talnakh,69.4865,88.3972,91,100,0.9,RU,1687599820,11.379999999999995
542,byron bay,-28.65,153.6167,42,30,2.92,AU,1687599489,12.769999999999982
543,nalut,30.3333,10.85,20,0,4.12,LY,1687599822,33.170000000000016
544,pudozh,61.8099,36.5345,33,12,2.03,RU,1687599824,23.310000000000002
545,zhangjiakou,40.81,114.8794,19,81,5.63,CN,1687599825,33.44999999999999
546,angoche,-16.2325,39.9086,56,43,7.46,MZ,1687599825,25.939999999999998
547,garowe,8.4054,48.4845,31,76,9.89,SO,1687599826,34.110000000000014
548,pervomayskoye,43.919,46.7102,21,17,2.87,RU,1687599827,31.74000000000001
549,maniitsoq,65.4167,-52.9,86,58,3.59,GL,1687599828,3.3600000000000136
550,markala,13.7021,-6.0659,40,56,6.8,ML,1687599828,33.49000000000001
551,shanting,35.0753,117.4578,41,77,7.33,CN,1687599829,31.139999999999986
552,lerwick,60.1545,-1.1494,91,62,3.23,GB,1687599830,14.149999999999977
553,honiara,-9.4333,159.95,90,100,2.91,SB,1687599830,26.110000000000014
554,uruzgan,32.8333,66.0,6,0,2.82,AF,1687599831,38.910000000000025
555,westport,41.1415,-73.3579,94,100,1.54,US,1687599799,21.019999999999982
556,roebourne,-20.7833,117.1333,34,0,1.21,AU,1687599832,21.100000000000023
